{
  "浅草_日本": {
    "place_name": "浅草",
    "latitude": 35.7175966,
    "longitude": 139.7975626,
    "address": "浅草, 台東区, 東京都, 日本",
    "geocoded": true,
    "method": "nominatim",
    "confidence": 0.7
  },
  "埼玉_日本": {
    "place_name": "埼玉",
    "latitude": 36.1192436,
    "longitude": 139.4976783,
    "address": "埼玉, 行田市, 埼玉県, 361-0033, 日本",
    "geocoded": true,
    "method": "nominatim",
    "confidence": 0.7
  },
  "日光_日本": {
    "place_name": "日光",
    "latitude": 36.7471805,
    "longitude": 139.6219414,
    "address": "日光, 日光停車場線, 相生町, 日光市, 栃木県, 321-1413, 日本",
    "geocoded": true,
    "method": "nominatim",
    "confidence": 0.7
  },
  "銀座_日本": {
    "place_name": "銀座",
    "latitude": 35.6720135,
    "longitude": 139.7647202,
    "address": "銀座, 中央区, 東京都, 104-0061, 日本",
    "geocoded": true,
    "method": "nominatim",
    "confidence": 0.7
  },
  "新宿_日本": {
    "place_name": "新宿",
    "latitude": 35.6899306,
    "longitude": 139.6997392,
    "address": "新宿, Mosaic Street, 西新宿一丁目, 西新宿, 新宿区, 東京都, 160-8484, 日本",
    "geocoded": true,
    "method": "nominatim",
    "confidence": 0.7
  },
  "野道_日本": {
    "place_name": "野道",
    "latitude": 31.8661117,
    "longitude": 129.9602414,
    "address": "野島, 薩摩川内市, 鹿児島県, 日本",
    "geocoded": true,
    "method": "nominatim",
    "confidence": 0.7
  },
  "軽井沢_日本": {
    "place_name": "軽井沢",
    "latitude": 36.3428502,
    "longitude": 138.6341737,
    "address": "軽井沢, 軽井沢東, 軽井沢町, 北佐久郡, 長野県, 389-0104, 日本",
    "geocoded": true,
    "method": "nominatim",
    "confidence": 0.7
  },
  "上野_日本": {
    "place_name": "上野",
    "latitude": 35.7133757,
    "longitude": 139.7766557,
    "address": "上野, パンダ橋, 上野七丁目, 上野, 台東区, 東京都, 110-8716, 日本",
    "geocoded": true,
    "method": "nominatim",
    "confidence": 0.7
  },
  "鎌倉_日本": {
    "place_name": "鎌倉",
    "latitude": 35.3192808,
    "longitude": 139.5469627,
    "address": "鎌倉市, 神奈川県, 日本",
    "geocoded": true,
    "method": "nominatim",
    "confidence": 0.7
  },
  "木道_日本": {
    "place_name": "木道",
    "latitude": 37.9396861,
    "longitude": 139.3600988,
    "address": "木道, 金谷, 新発田市, 新潟県, 957-0052, 日本",
    "geocoded": true,
    "method": "nominatim",
    "confidence": 0.7
  },
  "本道_日本": {
    "place_name": "本道",
    "latitude": 36.6035097,
    "longitude": 138.2072752,
    "address": "本道, 川合川中島線, 真島町真島, 長野市, 長野県, 381-2298, 日本",
    "geocoded": true,
    "method": "nominatim",
    "confidence": 0.7
  },
  "渋谷_日本": {
    "place_name": "渋谷",
    "latitude": 35.6584501,
    "longitude": 139.7028426,
    "address": "渋谷, 明治通り, 渋谷二丁目, 渋谷, 渋谷区, 東京都, 150-6101, 日本",
    "geocoded": true,
    "method": "nominatim",
    "confidence": 0.7
  },
  "横浜_日本": {
    "place_name": "横浜",
    "latitude": 35.4662066,
    "longitude": 139.6231953,
    "address": "横浜, 国道1号, 高島二丁目, 西区, 横浜市, 神奈川県, 231-0017, 日本",
    "geocoded": true,
    "method": "nominatim",
    "confidence": 0.7
  },
  "神戸_日本": {
    "place_name": "神戸",
    "latitude": 34.6792876,
    "longitude": 135.1781221,
    "address": "神戸, 神戸駅前１号線, 相生町四丁目, 中央区, 神戸市, 兵庫県, 650-0025, 日本",
    "geocoded": true,
    "method": "nominatim",
    "confidence": 0.7
  },
  "海道_日本": {
    "place_name": "海道",
    "latitude": 35.423254,
    "longitude": 139.601918,
    "address": "海道, 鎌倉街道, 通町四丁目, 南区, 横浜市, 神奈川県, 232-0056, 日本",
    "geocoded": true,
    "method": "nominatim",
    "confidence": 0.7
  },
  "千葉_日本": {
    "place_name": "千葉",
    "latitude": 35.6121041,
    "longitude": 140.1141578,
    "address": "千葉, 駅前地下道, 新千葉一丁目, 中央区, 千葉市, 千葉県, 260-0031, 日本",
    "geocoded": true,
    "method": "nominatim",
    "confidence": 0.7
  },
  "大阪_日本": {
    "place_name": "大阪",
    "latitude": 34.6937569,
    "longitude": 135.5014539,
    "address": "大阪市, 大阪府, 日本",
    "geocoded": true,
    "method": "nominatim",
    "confidence": 0.7
  }
}